City_ID,City,Lat,Lng,Max Temp,Humidity,Cloudiness,Wind Speed,Country,Date
0,tura,25.5198,90.2201,23.08,97,89,2.6,IN,1696290704
1,camana,-16.6228,-72.7111,19.47,77,24,3.39,PE,1696242749
2,atamyrat,37.8357,65.2106,19.2,19,0,2.59,TM,1696296948
3,manavalakurichi,8.1333,77.3,25.45,90,100,4.34,IN,1696293523
4,adamstown,-25.066,-130.1015,20.31,70,65,10.69,PN,1696256356
5,port alfred,-33.5906,26.891,19.11,69,0,4.9,ZA,1696304843
6,grytviken,-54.2811,-36.5092,2.54,97,100,5.24,GS,1696233012
7,hilo,19.7297,-155.09,27.27,80,100,4.92,US,1696263076
8,ciudad melchor muzquiz,27.8833,-101.5167,32.63,41,61,5.95,MX,1696250349
9,jirkov,50.4998,13.4477,18.92,62,89,0.86,CZ,1696309719
10,kuqa,41.7278,82.9364,18.5,31,69,0.87,CN,1696292780
11,katsuura,35.1333,140.3,22.46,62,92,3.32,JP,1696278859
12,papatowai,-46.5619,169.4708,9.26,46,12,1.48,NZ,1696270260
13,olonkinbyen,70.9221,-8.7187,2.65,97,100,7.75,SJ,1696316307
14,yaren,-0.5472,166.916,28.98,76,60,4.88,NR,1696271885
15,blackmans bay,-43.0167,147.3167,17.07,76,100,4.82,AU,1696275696
16,bredasdorp,-34.5322,20.0403,13.26,73,0,1.58,ZA,1696306461
17,kodiak,57.79,-152.4072,8.73,46,0,5.14,US,1696263339
18,sargatskoye,55.6101,73.4972,6.92,71,8,3.7,RU,1696295476
19,edinburgh of the seven seas,-37.0676,-12.3116,9.88,57,39,9.76,SH,1696227838
20,port-aux-francais,-49.35,70.2167,1.96,70,80,15.51,TF,1696293933
21,egilsstadir,65.2653,-14.3948,4.95,100,100,9.26,IS,1696230551
22,waitangi,-43.9535,-176.5597,12.12,88,96,1.34,NZ,1696353296
23,st. john's,47.5649,-52.7093,10.71,92,20,2.57,CA,1696239037
24,bilibino,68.0546,166.4372,-8.36,94,100,0.77,RU,1696273861
25,bethel,41.3712,-73.414,21.87,77,22,0.76,US,1696243860
26,saint-philippe,-21.3585,55.7679,21.77,82,37,1.47,RE,1696298193
27,tabligbo,6.5833,1.5,24.86,92,51,2.01,TG,1696225298
28,aasiaat,68.7098,-52.8699,-6.48,71,1,3.68,GL,1696240067
29,invercargill,-46.4,168.35,11.12,60,14,3.13,NZ,1696270535
30,zhalantun,48.0,122.7167,11.38,59,100,1.51,CN,1696283390
31,okha,53.5739,142.9478,8.1,91,100,9.42,RU,1696278709
32,hawaiian paradise park,19.5933,-154.9731,27.15,81,100,3.6,US,1696263046
33,ribeira grande,38.5167,-28.7,19.87,74,2,3.58,PT,1696233061
34,lebu,-37.6167,-73.65,10.17,80,99,4.5,CL,1696242529
35,maceio,-9.6658,-35.7353,23.69,88,0,3.09,BR,1696233993
36,hermanus,-34.4187,19.2345,15.26,81,0,1.21,ZA,1696306657
37,grand falls-windsor,48.9332,-55.6649,11.55,63,3,0.91,CA,1696239785
38,angra do heroismo,38.65,-27.2167,20.34,77,20,1.79,PT,1696232708
39,quartu sant'elena,39.2419,9.1839,22.24,77,0,1.54,IT,1696310434
40,uturoa,-16.7333,-151.4333,25.89,82,5,7.04,PF,1696261630
41,hirara,24.8,125.2833,28.15,94,75,7.2,JP,1696282274
42,watampone,-4.5386,120.3279,23.95,89,53,2.3,ID,1696283001
43,akobo,7.4344,3.9497,23.02,96,100,1.56,NG,1696224723
44,waingapu,-9.6567,120.2641,24.82,81,4,2.99,ID,1696282933
45,ta`u,-14.2336,-169.5144,26.51,83,93,10.25,AS,1696266010
46,okhotsk,59.3833,143.3,6.18,77,8,4.21,RU,1696278865
47,guarapari,-20.6667,-40.4975,24.38,95,92,0.78,BR,1696234950
48,badger,64.8,-147.5333,2.95,84,100,4.12,US,1696262541
49,polovinnoye,54.7914,65.9864,9.54,66,100,3.84,RU,1696297249
50,talnakh,69.4865,88.3972,0.67,96,100,7.61,RU,1696292774
51,yellowknife,62.456,-114.3525,10.79,91,100,2.06,CA,1696254419
52,mgandu,-5.95,34.1333,19.84,41,87,5.15,TZ,1696303658
53,dragasani,44.65,24.2667,14.21,57,29,1.43,RO,1696306946
54,wailua homesteads,22.0669,-159.378,28.4,77,20,4.12,US,1696264143
55,quellon,-43.1167,-73.6167,7.97,78,100,1.79,CL,1696242358
56,hammerfest,70.6634,23.6821,1.25,93,75,1.03,NO,1696308478
57,severo-yeniseyskiy,60.3725,93.0408,-3.01,87,100,3.58,RU,1696290997
58,port blair,11.6667,92.75,26.02,89,75,3.09,IN,1696289871
59,sao geraldo do araguaia,-6.4006,-48.555,33.76,28,74,1.72,BR,1696237119
60,cabo san lucas,22.8909,-109.9124,34.78,58,20,7.72,MX,1696252282
61,fort st. john,56.2499,-120.8529,13.94,44,75,6.69,CA,1696255691
62,sitka,57.0531,-135.33,11.94,87,100,3.6,US,1696259203
63,jamestown,42.097,-79.2353,24.45,61,0,4.12,US,1696245275
64,whitehorse,60.7161,-135.0538,11.12,64,75,7.72,CA,1696259304
65,avarua,-21.2078,-159.775,23.03,68,75,3.6,CK,1696263549
66,isafjordur,66.0755,-23.124,1.41,92,100,7.0,IS,1696232705
67,benemerito de las americas,16.5167,-90.6439,33.23,50,24,2.02,MX,1696247558
68,yung shue wan,22.2333,114.1167,28.75,82,81,2.79,HK,1696284911
69,taghazout,30.5426,-9.7112,29.43,44,5,3.22,MA,1696228353
70,midvagur,62.0511,-7.1939,10.46,93,100,6.69,FO,1696228632
71,tazovsky,67.4667,78.7,7.79,95,100,7.15,RU,1696294918
72,kimberley,-28.7323,24.7623,20.83,40,0,4.63,ZA,1696305472
73,mana,5.6592,-53.7767,27.73,78,32,6.61,GF,1696238550
74,odienne,9.51,-7.5692,23.53,90,18,1.02,CI,1696227517
75,albany,42.6001,-73.9662,22.02,69,25,1.02,US,1696244021
76,mahibadhoo,3.7833,72.9667,27.4,78,76,4.12,MV,1696294495
77,new plymouth,-39.0667,174.0833,8.51,78,100,6.33,NZ,1696269403
78,karema,-6.8205,30.4389,28.16,33,28,4.46,TZ,1696304530
79,chagoda,59.164,35.3285,9.1,88,100,1.36,RU,1696304809
80,college,64.8569,-147.8028,2.99,84,100,4.12,US,1696262609
81,lihue,21.9789,-159.3672,28.74,72,20,4.12,US,1696264139
82,kayes,14.0,-11.0,23.61,80,100,3.32,ML,1696228405
83,andergrove,-21.0833,149.1833,22.58,80,23,6.19,AU,1696275793
84,ancud,-41.8697,-73.8203,8.68,64,93,2.03,CL,1696242447
85,cidreira,-30.1811,-50.2056,14.22,75,2,3.2,BR,1696237089
86,saint-pierre,-21.3393,55.4781,21.82,68,0,2.06,RE,1696298263
87,qaqortoq,60.7167,-46.0333,5.15,56,100,1.28,GL,1696237902
88,anadyr,64.75,177.4833,0.28,80,0,5.0,RU,1696270951
89,zahedan,29.4963,60.8629,14.95,21,0,2.06,IR,1696297824
90,afaahiti,-17.75,-149.2833,26.93,87,69,6.69,PF,1696261096
91,la ronge,55.1001,-105.2842,7.14,87,100,2.57,CA,1696251906
92,thompson,55.7435,-97.8558,7.09,81,100,0.0,CA,1696250145
93,ambalangoda,6.2355,80.0538,25.13,87,100,1.29,LK,1696292833
94,balabac,7.9868,117.0645,27.63,80,96,4.23,PH,1696283978
95,atakpame,7.5333,1.1333,22.86,96,98,1.5,TG,1696225400
96,longyearbyen,78.2186,15.6401,-3.09,68,75,7.72,SJ,1696311854
97,salinopolis,-0.6136,-47.3561,27.27,81,33,6.77,BR,1696236918
98,queenstown,-31.8976,26.8753,18.68,32,0,2.53,ZA,1696304890
99,berberati,4.2612,15.7922,21.62,97,99,0.37,CF,1696221836
100,tiksi,71.6872,128.8694,-2.64,80,100,6.64,RU,1696283282
101,iqaluit,63.7506,-68.5145,3.85,80,100,4.92,CA,1696243472
102,cockburn town,21.4612,-71.1419,28.66,75,49,5.28,TC,1696242953
103,remire-montjoly,4.9167,-52.2667,28.02,74,0,4.12,GF,1696238177
104,port mathurin,-19.6833,63.4167,23.52,82,31,6.95,MU,1696296391
105,port lincoln,-34.7333,135.8667,13.24,75,72,6.48,AU,1696278684
106,berezovyy,51.6667,135.7,6.39,89,94,0.74,RU,1696280384
107,sinop,41.7711,34.8709,12.48,90,51,2.6,TR,1696304325
108,dickinson,29.4608,-95.0513,31.74,59,20,8.23,US,1696248824
109,lautoka,-17.6167,177.4667,25.92,57,40,6.17,FJ,1696269074
110,puerto ayora,-0.7393,-90.3518,26.98,93,88,2.68,EC,1696247232
111,stanley,54.868,-1.6985,10.01,93,20,2.06,GB,1696227004
112,enewetak,11.3474,162.3373,28.76,79,87,7.72,MH,1696273165
113,zuunmod,47.7069,106.9528,-7.43,84,93,2.06,MN,1696287168
114,krasnogorskiy,54.6025,61.231,13.17,67,100,3.15,RU,1696298384
115,jiayuguan,39.8167,98.3,12.83,38,100,1.88,CN,1696289045
116,lebanon,36.2081,-86.2911,30.93,48,0,1.54,US,1696246845
117,korla,41.7597,86.1469,17.79,33,99,4.55,CN,1696292010
118,maracacume,-2.0428,-45.9592,28.74,59,50,3.64,BR,1696236561
119,mount isa,-20.7333,139.5,23.87,35,7,2.06,AU,1696278122
120,kandukur,15.2167,79.9167,28.04,68,88,4.79,IN,1696293007
121,port saint john's,-31.6229,29.5448,17.87,75,0,5.88,ZA,1696304256
122,urangan,-25.3,152.9,22.21,68,6,4.71,AU,1696274818
123,pandan,14.0453,124.1694,27.36,84,100,5.39,PH,1696282367
124,vernon,50.2581,-119.2691,16.45,58,81,0.51,CA,1696255104
125,rongelap,11.1635,166.8941,29.08,76,100,6.46,MH,1696272068
126,puerto natales,-51.7236,-72.4875,6.4,90,76,1.79,CL,1696241757
127,juuka,63.2333,29.25,7.53,93,100,3.24,FI,1696306499
128,petropavlovsk-kamchatsky,53.0452,158.6483,8.03,88,75,6.71,RU,1696274917
129,acarau,-2.8856,-40.12,26.31,84,74,7.51,BR,1696235148
130,daru,-9.0763,143.2092,25.82,84,76,5.83,PG,1696277438
131,dudinka,69.4058,86.1778,0.9,96,100,10.28,RU,1696293300
132,dinguiraye,11.3,-10.7167,23.57,89,100,0.56,GN,1696228298
133,new norfolk,-42.7826,147.0587,17.72,89,100,2.06,AU,1696275766
134,kerikeri,-35.2268,173.9474,16.62,74,11,0.89,NZ,1696269541
135,pointe-du-lac,46.2869,-72.6845,20.99,59,0,3.6,CA,1696243802
136,mbekenyera,-10.0,38.9833,20.0,85,26,0.74,TZ,1696302426
137,villa la angostura,-40.7617,-71.6463,4.79,93,98,1.88,AR,1696241959
138,kruisfontein,-34.0033,24.7314,18.96,39,0,2.81,ZA,1696305350
139,hami,42.8,93.45,16.49,34,51,0.67,CN,1696290281
140,mount pearl,47.5166,-52.7813,10.25,92,20,2.57,CA,1696239053
141,namibe,-15.1961,12.1522,19.37,80,4,3.17,AO,1696222416
142,artesia,33.8658,-118.0831,26.51,56,0,6.69,US,1696254434
143,keshorai patan,25.3,75.9333,25.57,44,11,2.37,IN,1696294130
144,strathalbyn,-35.2667,138.9,16.06,85,34,4.59,AU,1696277943
145,rohru,31.2167,77.75,14.39,79,17,1.97,IN,1696293802
146,georgetown,5.4112,100.3354,27.23,92,20,2.06,MY,1696287953
147,la passe,45.5549,-0.8967,20.13,90,7,4.16,FR,1696313015
148,loango,-4.6719,11.8312,24.45,88,31,3.1,CG,1696222657
149,usogorsk,63.4106,48.6872,3.7,90,72,2.1,RU,1696301836
150,fort mcmurray,56.7268,-111.381,12.77,76,100,4.63,CA,1696253434
151,prien,30.1819,-93.2738,32.23,36,0,4.63,US,1696248410
152,ust-nera,64.5667,143.2,-1.55,81,33,0.89,RU,1696279184
153,marang,5.2056,103.2059,24.96,86,100,1.17,MY,1696287261
154,minas de marcona,-15.2119,-75.1103,16.02,75,38,7.09,PE,1696243348
155,punta arenas,-53.15,-70.9167,8.06,66,0,5.14,CL,1696241313
156,arno,60.1167,18.6333,12.66,93,100,4.8,SE,1696308871
157,kayangel,8.0823,134.7173,28.42,75,16,4.0,PW,1696279743
158,oliver,49.1831,-119.5524,17.95,45,96,2.06,CA,1696255141
159,vila franca do campo,37.7167,-25.4333,20.23,99,66,4.44,PT,1696232260
160,phetchaburi,12.9667,99.5833,23.78,92,100,1.46,TH,1696288251
161,bireun,5.203,96.7009,25.83,85,100,2.38,ID,1696288822
162,rawson,-43.3002,-65.1023,10.5,63,32,5.74,AR,1696240312
163,dunay,42.8803,132.3375,14.01,65,4,2.63,RU,1696280943
164,fauske,67.2588,15.3918,7.02,93,100,2.26,NO,1696310130
165,betioky,-23.7167,44.3833,16.68,66,1,5.56,MG,1696300876
166,margaret river,-33.95,115.0667,13.02,66,92,6.0,AU,1696283692
167,colonia,50.9333,6.95,20.49,76,0,2.57,DE,1696311294
168,atafu village,-8.5421,-172.5159,28.46,74,7,3.87,TK,1696353191
169,utrik,11.2278,169.8474,28.79,78,26,7.27,MH,1696271361
170,wynyard,-41.0,145.7167,13.5,99,100,2.64,AU,1696276145
171,ad dawadimi,24.5077,44.3924,26.64,16,1,4.98,SA,1696301688
172,empangeni,-28.762,31.8933,16.77,60,0,5.94,ZA,1696303761
173,dubuque,42.4833,-90.8668,29.79,39,0,5.14,US,1696248077
174,matoury,4.8483,-52.3317,27.98,74,0,4.12,GF,1696238191
175,taveta,-3.3963,37.6736,20.85,66,45,2.71,KE,1696302850
176,markivka,49.5229,39.5705,12.95,77,99,4.18,UA,1696303411
177,extrema,-22.8547,-46.3183,19.84,92,50,1.21,BR,1696236306
178,shingu,33.7333,135.9833,17.19,65,79,2.08,JP,1696279868
179,east london,-33.0153,27.9116,18.39,72,0,5.85,ZA,1696304613
180,manokwari,-0.8667,134.0833,25.72,82,100,0.93,ID,1696279758
181,longview,32.5007,-94.7405,32.14,29,20,5.14,US,1696248803
182,colon,9.3592,-79.9014,26.62,84,100,1.34,PA,1696244873
183,west island,-12.1568,96.8225,24.99,69,40,5.66,CC,1696288514
184,wulingyuan,29.3494,110.5441,16.53,97,100,1.66,CN,1696285893
185,yuzhno-kurilsk,44.0306,145.8556,14.65,74,17,8.74,RU,1696277724
186,faya-largeau,17.9257,19.1043,30.5,26,34,14.34,TD,1696221237
187,al lagowa,11.4,29.1333,23.0,84,40,2.41,SD,1696305134
188,ilulissat,69.2167,-51.1,-0.99,43,0,6.69,GL,1696239687
189,bogale,16.2833,95.4,24.17,95,98,1.1,MM,1696289307
190,fale old settlement,-9.3852,-171.2468,28.26,74,52,4.25,TK,1696352872
191,port elizabeth,-33.918,25.5701,19.06,65,0,2.06,ZA,1696305151
192,champerico,14.3,-91.9167,33.3,69,49,4.07,GT,1696247830
193,alofi,-19.0595,-169.9187,23.94,69,75,6.17,NU,1696266022
194,yarim,14.298,44.3779,13.21,47,0,1.04,YE,1696301522
195,ushuaia,-54.8,-68.3,5.81,61,40,4.63,AR,1696240601
196,kourou,5.1552,-52.6478,28.03,80,22,5.5,GF,1696238272
197,weno,7.4515,151.8468,28.97,84,75,1.54,FM,1696275623
198,keflavik,64.0049,-22.5624,6.24,81,75,8.23,IS,1696232437
199,kailua-kona,19.6406,-155.9956,29.98,73,20,4.12,US,1696263292
200,hithadhoo,-0.6,73.0833,27.72,75,35,5.29,MV,1696294399
201,rikaze,29.25,88.8833,10.05,63,58,0.96,CN,1696291092
202,al bawiti,28.3492,28.8659,23.07,48,55,2.92,EG,1696305485
203,funafuti,-8.5243,179.1942,32.0,89,40,2.57,TV,1696268814
204,nemuro,43.3236,145.575,13.89,72,38,10.73,JP,1696277774
205,vilyuysk,63.7553,121.6247,1.11,75,100,1.79,RU,1696284319
206,sa'dah,16.9402,43.7639,17.84,20,0,2.31,YE,1696301712
207,renfrew,55.872,-4.3925,13.64,83,75,6.17,GB,1696227688
208,mandera,3.9366,41.867,27.65,55,69,7.68,KE,1696301961
209,sumbe,-11.2061,13.8437,21.64,91,23,4.72,AO,1696222075
210,vallenar,-28.5708,-70.7581,11.86,72,0,3.14,CL,1696242052
211,bandon,51.7469,-8.7425,10.77,93,4,2.14,IE,1696228594
212,gadzhiyevo,69.2551,33.3362,3.76,65,100,3.61,RU,1696306000
213,maridi,4.9158,29.4742,20.13,92,93,0.21,SS,1696304950
214,chachersk,52.9164,30.9179,7.95,83,63,2.29,BY,1696305605
215,druzhny,53.6238,27.8977,8.14,82,60,2.4,BY,1696306357
216,constantia,44.1833,28.65,14.38,50,0,5.07,RO,1696305881
217,gaiman,-43.2897,-65.4929,11.01,50,13,4.08,AR,1696240406
218,ugoofaaru,5.6667,73.0,27.02,81,98,6.11,MV,1696294517
219,emerald,-23.5333,148.1667,21.86,66,16,7.06,AU,1696275989
220,freetown,8.484,-13.2299,26.84,89,75,3.09,SL,1696228860
221,saipan,15.1355,145.701,29.39,84,40,5.14,MP,1696277216
222,berdigestyakh,62.0989,126.6992,4.05,77,100,0.45,RU,1696282999
223,happy valley-goose bay,53.3168,-60.3315,9.17,53,75,3.09,CA,1696241041
224,udachny,66.4167,112.4,-7.67,96,19,2.41,RU,1696286725
225,bikenibeu village,1.3673,173.1241,31.98,70,40,2.06,KI,1696270425
226,kone,-21.0595,164.8658,24.4,59,97,4.47,NC,1696272032
227,horta,38.5333,-28.6333,19.45,74,4,3.13,PT,1696233045
228,tatvan,38.5067,42.2817,8.94,89,34,1.02,TR,1696302469
229,la'ie,21.6477,-157.9253,30.98,67,0,4.02,US,1696263788
230,port shepstone,-30.7414,30.455,16.58,79,0,7.75,ZA,1696304059
231,hafnarfjordur,64.0671,-21.9377,7.23,81,0,0.51,IS,1696232290
232,iskateley,67.6803,53.1512,3.9,78,60,9.39,RU,1696301083
233,chifeng,42.2683,118.9636,14.7,51,100,4.21,CN,1696284140
234,coahuayana de hidalgo,18.7,-103.6583,29.89,79,78,2.27,MX,1696250715
235,tanout,14.9709,8.8879,27.32,44,100,4.31,NE,1696223646
236,uliastay,47.7417,96.8444,-0.29,82,6,1.0,MN,1696289598
237,port-vila,-17.7338,168.3219,23.86,76,91,11.18,VU,1696271265
238,jayapura,-2.5333,140.7,24.66,91,100,3.02,ID,1696278144
239,qamdo,31.1667,97.2333,3.24,80,8,1.6,CN,1696289123
240,thal,35.4791,72.2439,9.57,57,0,2.77,PK,1696295208
241,anju,39.6178,125.6647,14.46,77,100,1.04,KP,1696282469
242,huntertown,41.2284,-85.1725,29.61,42,0,0.0,US,1696246681
243,palikir - national government center,6.9248,158.1611,31.41,66,40,1.54,FM,1696274100
244,banamba,13.55,-7.45,26.28,65,94,3.5,ML,1696227546
245,argo,37.6333,22.7333,20.46,62,6,1.68,GR,1696307144
246,pacific grove,36.6177,-121.9166,22.99,76,0,4.02,US,1696255408
247,kismayo,-0.3582,42.5454,25.67,87,10,7.2,SO,1696301730
248,lerwick,60.1545,-1.1494,12.0,81,11,9.15,GB,1696227085
249,pudozh,61.8099,36.5345,6.08,82,94,1.34,RU,1696304661
250,timimoun,29.2639,0.231,25.21,36,0,4.12,DZ,1696225944
251,sur,22.5667,59.5289,29.86,50,37,2.85,OM,1696298021
252,silale,55.4906,22.1814,14.57,96,100,3.61,LT,1696307804
253,kidal,18.4411,1.4078,32.81,23,33,3.85,ML,1696225492
254,dhidhdhoo,6.8833,73.1,27.14,81,98,7.4,MV,1696294512
255,jaru,-10.4389,-62.4664,32.27,33,66,1.14,BR,1696240393
256,litchfield,41.7668,-73.2501,20.01,77,7,0.86,US,1696243830
257,salaqi,40.5414,110.5108,10.48,81,34,1.51,CN,1696286129
258,mafinga,-7.25,35.0667,22.45,41,26,2.81,TZ,1696303412
259,fort bragg,35.139,-79.006,28.08,47,0,4.12,US,1696245075
260,burang,30.25,81.1667,4.64,82,49,2.74,CN,1696292963
261,tan-tan,28.438,-11.1032,26.68,35,0,4.39,MA,1696228651
262,chimbarongo,-34.7,-71.05,15.49,82,97,1.36,CL,1696241981
263,wuzhou,23.4833,111.3167,25.08,90,78,0.15,CN,1696285605
264,sao jose da coroa grande,-8.8978,-35.1478,24.12,80,5,4.1,BR,1696233864
265,shalkar,47.8288,59.6258,13.3,50,14,3.25,KZ,1696298541
266,richards bay,-28.783,32.0377,17.93,60,0,7.08,ZA,1696303726
267,praia da vitoria,38.7333,-27.0667,20.14,73,20,5.49,PT,1696232673
268,xining,36.6167,101.7667,10.82,86,90,0.66,CN,1696288143
269,gaspe,48.8334,-64.4819,13.12,76,40,0.0,CA,1696241900
270,grand island,40.925,-98.342,31.97,36,0,11.32,US,1696249837
271,ijebu-ode,6.8161,3.9159,23.94,95,50,1.13,NG,1696224722
272,imbituba,-28.24,-48.6703,14.18,76,23,2.6,BR,1696236763
273,kharkhorin,47.1975,102.8238,2.27,90,76,1.65,MN,1696288146
274,kristiansund,63.1115,7.732,9.36,81,100,1.03,NO,1696311665
275,chonchi,-42.6128,-73.8092,8.95,92,100,0.25,CL,1696242421
276,carnarvon,-24.8667,113.6333,15.45,62,0,11.35,AU,1696284244
277,hudiksvall,61.729,17.1036,6.64,92,99,1.54,SE,1696309328
278,luanda,-8.8368,13.2343,24.0,83,75,3.09,AO,1696222258
279,smithers,54.7804,-127.1743,11.18,82,75,3.09,CA,1696257155
280,terenozek,45.05,64.9833,13.66,46,0,2.97,KZ,1696297177
281,mejit,10.2753,170.8646,28.65,77,11,7.19,MH,1696271102
282,amga,60.8953,131.9608,3.88,90,100,1.34,RU,1696281668
283,tuban,-6.8976,112.0649,25.12,75,91,3.49,ID,1696284945
284,nuuk,64.1835,-51.7216,4.34,65,75,1.03,GL,1696239460
285,pangody,65.85,74.4859,8.55,91,100,8.57,RU,1696295801
286,pallisa,1.145,33.7094,20.7,88,91,0.61,UG,1696303874
287,nova sintra,14.8667,-24.7167,23.61,81,73,5.15,CV,1696231710
288,huarmey,-10.0681,-78.1522,20.47,82,43,4.65,PE,1696244162
289,ixtapa,20.7,-105.2,31.57,74,75,3.6,MX,1696251116
290,paita,-5.0892,-81.1144,20.74,79,18,7.86,PE,1696244950
291,genhe,50.7833,121.5167,6.91,76,100,1.1,CN,1696283763
292,tsiombe,-25.3,45.4833,18.26,64,94,5.26,MG,1696300579
293,celestun,20.8667,-90.4,29.74,72,76,5.92,MX,1696247566
294,pachino,36.7186,15.0907,22.3,65,0,1.52,IT,1696308959
295,opuwo,-18.0607,13.84,24.8,19,37,4.74,,1696308313
296,vail,32.0479,-110.712,29.92,17,0,2.68,US,1696252630
297,saldanha,-33.0117,17.9442,15.12,91,0,5.67,ZA,1696307003
298,newman,37.3138,-121.0208,26.8,32,3,4.02,US,1696255207
299,ocos,14.5094,-92.1933,31.1,73,41,3.5,GT,1696247900
300,northam,51.0333,-4.2167,13.55,96,100,6.98,GB,1696227485
301,codrington,-38.2667,141.9667,15.41,68,84,6.14,AU,1696277126
302,uttarkashi,30.7333,78.45,17.68,75,0,2.98,IN,1696293624
303,kapuskasing,49.4169,-82.4331,27.05,50,75,7.2,CA,1696246230
304,rionero in vulture,40.9257,15.67,12.07,57,0,1.56,IT,1696308916
305,pathein,16.7833,94.7333,24.13,96,100,1.4,MM,1696289475
306,vadso,70.0744,29.7487,1.49,93,75,2.57,NO,1696306951
307,north bay,46.3168,-79.4663,24.41,75,20,3.6,CA,1696245432
308,san patricio,28.017,-97.5169,29.4,72,79,6.33,US,1696249391
309,messaad,34.1543,3.5031,22.03,44,0,2.03,DZ,1696225244
310,ust'-ilimsk,58.0006,102.6619,-0.99,94,94,3.13,RU,1696288569
311,phan thiet,10.9333,108.1,24.95,92,100,2.59,VN,1696286175
312,vytegra,61.0064,36.4481,11.31,90,99,8.05,RU,1696304636
313,chicoana,-25.1009,-65.5331,27.03,35,0,1.55,AR,1696240871
314,kapa'a,22.0752,-159.319,29.15,77,20,4.12,US,1696264129
315,klyuchi,52.2667,79.1667,3.78,57,3,3.36,RU,1696293988
316,rio gallegos,-51.6226,-69.2181,9.03,53,0,6.69,AR,1696240978
317,thunder bay,48.4001,-89.3168,26.99,47,75,3.6,CA,1696247855
318,portland,45.5234,-122.6762,14.97,90,100,2.24,US,1696255791
319,elko,41.0002,-115.5012,13.01,63,99,4.92,US,1696253960
320,chibougamau,49.9168,-74.3659,17.79,82,20,5.66,CA,1696244306
321,yeppoon,-23.1333,150.7333,20.88,68,3,6.13,AU,1696275381
322,nadym,65.5333,72.5167,8.73,89,69,9.52,RU,1696296251
323,yuanping,38.7153,112.7575,10.99,65,1,0.61,CN,1696285549
324,bamboo flat,11.7,92.7167,26.05,89,75,3.09,IN,1696289879
325,polyarnyy,69.1989,33.4478,2.3,73,100,3.01,RU,1696305968
326,esquel,-42.9,-71.3167,4.14,97,92,2.28,AR,1696241814
327,pisco,-13.7,-76.2167,21.03,78,0,7.72,PE,1696243639
328,sao mateus do maranhao,-4.0417,-44.475,29.38,59,88,4.61,BR,1696236176
329,lockwood,45.8191,-108.4149,15.91,72,75,1.54,US,1696252373
330,yangjiang,21.85,111.9667,25.73,90,80,1.1,CN,1696285421
331,baukau,51.5526,7.2042,21.14,65,59,3.54,DE,1696311255
332,chegdomyn,51.1167,133.0167,5.18,89,92,0.89,RU,1696281011
333,coquimbo,-29.9533,-71.3436,15.85,58,20,4.63,CL,1696242163
334,chernyshevskiy,63.0128,112.4714,-3.79,90,83,2.44,RU,1696286474
335,platteville,42.7342,-90.4785,29.58,34,0,3.6,US,1696247990
336,nouadhibou,20.931,-17.0347,27.99,39,0,5.66,MR,1696229956
337,kalmunai,7.4167,81.8167,25.12,85,90,5.74,LK,1696292428
338,plettenberg bay,-34.0527,23.3716,18.2,55,0,2.32,ZA,1696305675
339,pochinok,54.4068,32.4407,10.96,87,36,1.99,RU,1696305295
340,yarmouth,41.7057,-70.2286,17.26,84,0,5.81,US,1696243103
341,basco,20.4487,121.9702,27.34,83,100,16.05,PH,1696282997
342,makushino,55.2103,67.2442,9.1,67,95,4.14,RU,1696296963
343,betio village,1.358,172.9211,32.02,72,16,3.26,KI,1696270473
344,greenville,35.6127,-77.3663,26.09,62,0,2.57,US,1696244690
345,sokur,55.2093,83.319,0.99,71,18,2.36,RU,1696293100
346,san antonio de pale,-1.4014,5.6325,25.38,85,100,5.36,GQ,1696224192
347,simpang,-1.2667,104.0833,22.85,93,64,1.46,ID,1696286950
348,tha khanon,9.0302,98.9529,26.57,96,99,1.06,TH,1696288341
349,santa luzia,-19.7697,-43.8514,25.5,71,20,1.54,BR,1696235771
350,newberry,34.2746,-81.6187,27.32,66,0,2.19,US,1696245686
351,katsuren-haebaru,26.3369,127.8719,28.21,88,100,4.12,JP,1696281679
352,alo,7.4178,6.7371,24.53,94,85,1.01,NG,1696224054
353,viljandi,58.3639,25.59,12.81,89,100,3.69,EE,1696307111
354,nagqu,31.5,92.0,2.02,88,83,1.62,CN,1696290386
355,howrah,22.5892,88.3103,26.0,89,40,2.06,IN,1696291112
356,bryne,58.7354,5.6477,12.77,92,75,3.6,NO,1696311923
357,yanbu,24.0891,38.0637,30.02,89,0,3.09,SA,1696303200
358,hamilton,39.1834,-84.5333,29.68,51,0,2.57,US,1696246483
359,ouargla,31.9493,5.325,25.04,47,0,3.09,DZ,1696224767
360,tamanrasset,22.785,5.5228,21.95,37,40,2.06,DZ,1696224570
361,maumere,-8.6199,122.2111,26.19,78,22,1.65,ID,1696282483
362,diamantino,-14.4086,-56.4461,30.33,48,76,1.05,BR,1696238885
363,saint-germain-du-puy,47.1,2.4833,21.17,64,0,1.03,FR,1696312247
364,san ignacio,17.1561,-89.0714,34.08,59,75,0.0,BZ,1696247190
365,mundri,-6.9558,111.71,24.73,71,94,1.99,ID,1696285029
366,krasnovishersk,60.4078,57.082,11.97,98,62,1.78,RU,1696299643
367,hargeysa,9.56,44.065,22.55,56,14,1.34,SO,1696301522
368,krasyliv,49.6519,26.9725,10.04,77,23,2.09,UA,1696306442
369,north bend,43.4065,-124.2243,18.47,67,100,1.54,US,1696256111
370,znamenskoye,57.1281,73.8282,9.44,79,100,4.05,RU,1696295460
371,susuman,62.7833,148.1667,-1.68,82,10,1.34,RU,1696277877
372,taoudenni,22.6783,-3.9836,35.12,15,66,7.29,ML,1696226850
373,ibaiti,-23.8486,-50.1878,20.95,70,56,1.24,BR,1696237215
374,haiku-pauwela,20.9219,-156.3051,30.01,55,40,7.72,US,1696263387
375,qui nhon,13.7667,109.2333,26.26,86,100,2.37,VN,1696285947
376,island harbour,50.724,-1.2758,18.29,91,100,2.24,GB,1696226769
377,nizhniy ingash,56.2,96.53,1.97,97,100,3.39,RU,1696289965
378,zaozersk,69.4005,32.4476,1.68,75,100,2.46,RU,1696306229
379,perros-guirec,48.8145,-3.4396,17.58,92,100,0.45,FR,1696313722
380,es castell,39.8795,4.2854,22.38,88,20,3.09,ES,1696311626
381,kete krachi,7.7939,-0.0498,25.47,88,99,3.86,GH,1696225688
382,isangel,-19.55,169.2667,25.06,69,75,6.17,VU,1696271005
383,seminole,28.7086,-81.2081,28.2,69,20,7.2,US,1696245487
384,kosh-agach,50.0,88.6667,0.73,78,6,1.34,RU,1696291631
385,ouro preto do oeste,-10.7481,-62.2158,32.98,32,52,1.61,BR,1696240328
386,apolinario saravia,-24.4328,-63.9954,28.1,34,0,3.53,AR,1696240515
387,baykal'sk,51.5058,104.1469,4.46,73,56,1.18,RU,1696287960
388,kupang,-10.1667,123.5833,25.32,78,20,2.06,ID,1696282128
389,balotra,25.8333,72.2333,26.99,33,37,3.76,IN,1696295028
390,inhambane,-23.865,35.3833,20.3,58,62,3.46,MZ,1696303031
391,sola,-13.8833,167.55,25.36,85,100,11.57,VU,1696271518
392,arteche,12.2645,125.4048,27.2,83,100,3.1,PH,1696282043
393,hampton bays,40.869,-72.5176,21.67,74,0,2.06,US,1696243634
394,'ain el berd,35.3639,-0.5128,18.45,83,0,2.06,DZ,1696226231
395,lensk,60.7253,114.9278,-4.04,89,77,2.24,RU,1696285754
396,metlili chaamba,32.2667,3.6333,22.52,43,0,2.57,DZ,1696225179
397,cestos city,5.46,-9.5828,25.45,88,93,4.74,LR,1696227942
398,dubbo,-32.25,148.6167,26.07,27,10,11.32,AU,1696275690
399,piacabucu,-10.4056,-36.4344,23.92,79,0,5.23,BR,1696234149
400,baja,46.175,18.9564,15.75,58,19,3.06,HU,1696308264
401,sumbawa besar,-8.5,117.4333,24.48,71,32,1.61,ID,1696283631
402,tadjourah,12.0,42.5,28.02,48,0,4.75,DJ,1696301936
403,malvan,16.0667,73.4667,25.62,83,77,1.17,IN,1696294568
404,quatre cocos,-20.2078,57.7625,22.27,82,2,1.6,MU,1696297737
405,fortuna,40.5982,-124.1573,19.4,71,0,6.69,US,1696256030
406,emporia,38.4039,-96.1817,31.11,30,20,5.14,US,1696249264
407,al kharj,24.155,47.3346,30.32,18,0,4.0,SA,1696300976
408,conceicao da barra,-18.5933,-39.7322,24.78,86,64,5.29,BR,1696234804
409,papao,-17.75,-149.55,28.82,80,10,6.86,PF,1696261160
410,aykhal,66.0,111.5,-7.74,91,99,3.13,RU,1696286910
411,izumo,35.3667,132.7667,14.97,82,75,5.14,JP,1696280673
412,den burg,53.0542,4.7972,18.98,92,100,4.63,NL,1696311886
413,nar'yan-mar,67.6713,53.087,3.95,78,58,9.39,RU,1696301098
414,laguna,38.421,-121.4238,28.16,29,0,5.14,US,1696255327
415,yerofey pavlovich,53.9667,121.9667,4.65,94,100,1.14,RU,1696283765
416,oum hadjer,13.2954,19.6966,28.91,58,58,6.12,TD,1696221027
417,khovd,48.0056,91.6419,4.47,70,7,0.58,MN,1696290855
418,jacksonville,30.3322,-81.6556,26.68,79,75,6.69,US,1696245623
419,puerto aysen,-45.4,-72.7,6.29,98,100,1.69,CL,1696242062
420,tashtyp,52.7939,89.8983,1.97,90,11,0.04,RU,1696291428
421,alpine,32.835,-116.7664,22.93,50,0,6.69,US,1696254098
422,zabol,32.25,67.25,11.64,16,0,2.53,AF,1696296343
423,sligo,54.2697,-8.4694,11.45,93,83,3.28,IE,1696228611
424,santiago del torno,-17.9833,-63.3833,31.42,40,45,5.1,BO,1696240488
425,walvis bay,-22.9575,14.5053,13.38,100,0,2.06,,1696308057
426,lata,40.1629,-8.3327,18.84,95,0,0.96,PT,1696228204
427,qarqaraly,49.4058,75.4742,5.56,85,52,5.12,KZ,1696294782
428,zaxo,37.1482,42.7001,22.06,51,95,1.48,IQ,1696302338
429,rio brilhante,-21.8019,-54.5464,31.46,40,82,1.84,BR,1696238299
430,mpika,-11.8343,31.4529,18.57,60,25,4.33,ZM,1696304201
431,vorgashor,67.5833,63.95,1.11,77,92,9.13,RU,1696298477
432,wanxian,30.8039,108.3897,19.96,93,100,1.32,CN,1696286437
433,zouerate,22.7187,-12.4521,31.82,12,26,1.58,MR,1696228884
434,kingston,17.997,-76.7936,32.53,81,40,2.57,JM,1696244256
435,kirklareli,41.7351,27.2252,13.74,66,6,2.78,TR,1696306161
436,el calafate,-50.3408,-72.2768,5.77,74,7,2.47,AR,1696241768
437,kangding,30.0513,101.9603,13.48,95,88,0.69,CN,1696287967
438,mao,39.8885,4.2658,22.31,88,20,3.09,ES,1696311630
439,wotho,10.1657,166.0102,28.41,78,36,4.51,MH,1696272265
440,geraldton,-28.7667,114.6,14.23,67,100,4.12,AU,1696283928
441,chambas,22.1928,-78.9136,26.66,86,50,2.82,CU,1696244830
442,khromtau,50.2503,58.4347,11.07,53,100,2.66,KZ,1696298902
443,tabou,4.423,-7.3528,25.01,88,85,4.65,CI,1696227392
444,bowen,-20.0167,148.2333,23.91,72,26,6.39,AU,1696276041
445,puerto baquerizo moreno,-0.9,-89.6,25.55,78,40,7.2,EC,1696247050
446,karratha,-20.7377,116.8463,24.51,33,63,3.9,AU,1696283556
447,undurkhaan,47.3194,110.6556,2.51,60,56,1.91,MN,1696286268
448,paradip garh,20.3167,86.6167,26.82,86,100,2.21,IN,1696291481
449,sao tome,0.3365,6.7273,26.09,87,100,4.92,ST,1696223955
450,slyudyanka,51.6594,103.7061,2.8,87,54,1.46,RU,1696288071
451,lufilufi,-13.8745,-171.5986,29.88,83,80,11.21,WS,1696352874
452,kuraymah,18.55,31.85,34.49,14,11,3.21,SD,1696304598
453,tynda,55.1667,124.7167,3.23,89,99,0.49,RU,1696283149
454,ciudad lazaro cardenas,17.9583,-102.2,28.8,83,98,2.11,MX,1696250354
455,belaya kholunitsa,58.84,50.8528,10.09,86,84,1.61,RU,1696301062
456,sinabang,2.4803,96.3801,26.34,81,99,4.69,ID,1696288857
457,vuktyl,63.8567,57.3094,8.39,86,99,6.26,RU,1696299792
458,lazaro cardenas,17.9583,-102.2,28.8,83,98,2.11,MX,1696250354
459,puerto deseado,-47.7503,-65.8938,8.29,71,0,3.8,AR,1696240344
460,kasongo-lunda,-6.4667,16.8167,21.0,97,99,1.18,CD,1696221434
461,kuanda,56.3161,116.0806,-3.75,82,96,0.5,RU,1696285271
462,medicine hat,50.0501,-110.6683,18.24,41,20,6.69,CA,1696253032
463,mitchell,43.7094,-98.0298,32.99,29,0,9.77,US,1696249827
464,lahij,13.1667,44.5833,26.75,69,0,2.33,YE,1696301454
465,mermoz boabab,14.7065,-17.4758,28.88,89,0,0.0,SN,1696229969
466,broome,42.2506,-75.833,22.38,80,71,1.06,US,1696244461
467,oriximina,-1.7656,-55.8661,32.02,42,75,2.82,BR,1696238943
468,el nido,11.1858,119.3956,28.39,79,100,5.79,PH,1696283468
469,luderitz,-26.6481,15.1594,15.54,80,0,3.93,,1696307822
470,rock springs,41.5875,-109.2029,16.24,43,40,9.26,US,1696252461
471,kingscliff,-28.2667,153.5667,23.89,57,2,6.17,AU,1696274594
472,el sauzal de rodriguez,31.9,-116.6833,20.79,70,0,5.0,MX,1696254061
473,bumba,2.1833,22.4667,21.83,98,100,0.63,CD,1696220204
474,harper,4.375,-7.7169,25.2,85,83,5.01,LR,1696227479
475,kabinda,-6.1333,24.4833,22.48,69,34,1.05,CD,1696305970
476,bardai,11.65,7.2333,21.37,84,97,3.24,NG,1696223995
477,bulungu,-4.55,18.6,23.56,87,73,0.78,CD,1696221035
478,dzhalil',55.0239,52.7358,13.4,68,100,2.94,RU,1696300442
479,sao vicente,-23.9631,-46.3919,21.1,26,100,2.37,BR,1696236302
480,monte argentario,42.4345,11.1195,17.89,62,7,1.39,IT,1696310046
481,chimore,-16.9833,-65.1333,31.44,43,93,1.29,BO,1696240925
482,mawu,29.5923,107.3139,19.51,99,100,0.93,CN,1696286673
483,majie,25.0333,102.6361,16.99,100,40,3.0,CN,1696287715
484,fortaleza,-3.7227,-38.5247,27.34,78,20,3.09,BR,1696234753
485,coruripe,-10.1256,-36.1756,23.78,79,1,5.47,BR,1696234091
486,zheleznogorsk,52.331,35.3711,5.72,90,5,2.63,RU,1696304514
487,port isabel,26.0734,-97.2086,33.05,70,20,6.17,US,1696249284
488,sebastopol,44.6,33.5333,18.11,43,0,1.79,UA,1696304719
489,kralendijk,12.15,-68.2667,30.99,70,0,4.63,BQ,1696242122
490,palangkaraya,-2.2,113.8333,23.62,85,84,0.35,ID,1696284596
491,akureyri,65.6835,-18.0878,4.96,81,100,3.6,IS,1696231467
492,ribeira brava,32.65,-17.0667,24.35,82,47,2.56,PT,1696230156
493,hutchinson island south,27.2995,-80.2205,28.38,69,40,6.26,US,1696245226
494,shambu,9.5667,37.1,10.92,72,46,1.85,ET,1696303193
495,tegueste,28.5167,-16.3167,28.64,24,0,2.57,ES,1696229904
496,flekkefjord,58.2971,6.6607,14.41,89,100,1.2,NO,1696311658
497,pitimbu,-7.4706,-34.8086,25.33,73,54,4.88,BR,1696233804
498,sciacca,37.5082,13.0881,21.13,60,0,2.32,IT,1696309457
499,vanino,49.0869,140.2543,9.96,69,100,6.42,RU,1696279209
500,lake havasu city,34.4839,-114.3224,29.48,26,9,2.57,US,1696253543
501,burao,9.5221,45.5336,25.64,39,27,1.52,SO,1696301169
502,minot air force base,48.4209,-101.3391,18.1,82,100,1.54,US,1696250743
503,naliya,23.2667,68.8333,25.56,81,1,3.36,IN,1696295799
504,kisangani,0.5167,25.2,21.97,97,84,0.83,CD,1696305906
505,murray bridge,-35.1167,139.2667,16.18,58,74,4.38,AU,1696277859
506,kargil,34.5667,76.1,4.22,63,0,2.0,IN,1696294264
507,pervari,37.9357,42.5493,15.36,71,97,1.48,TR,1696302392
508,woolgoolga,-30.1106,153.2007,22.93,55,2,5.72,AU,1696274641
509,yulin,22.6333,110.15,24.85,95,99,0.69,CN,1696285870
510,rosarito,32.3333,-117.0333,24.79,62,0,5.82,MX,1696254153
511,jinchang,38.4953,102.1739,14.22,59,99,0.67,CN,1696288085
512,kavaratti,10.5669,72.642,27.66,77,100,3.22,IN,1696294679
513,gobabis,-22.45,18.9667,22.88,28,46,6.79,,1696306997
514,prado,-17.3411,-39.2208,24.5,90,94,4.42,BR,1696234703
515,shagonar,51.5333,92.8,5.34,56,5,0.69,RU,1696290688
516,kenai,60.5544,-151.2583,8.41,76,100,2.06,US,1696263191
517,hastings,50.8552,0.5729,19.95,38,100,10.04,GB,1696226329
518,kill devil hills,36.0307,-75.676,22.0,82,0,4.63,US,1696244292
519,kiunga,-6.1219,141.2906,25.06,94,99,0.32,PG,1696277946
520,san martin,-33.081,-68.4681,25.3,28,96,9.89,AR,1696241402
521,laascaanood,8.4774,47.3597,25.21,66,51,7.91,SO,1696300714
522,harstad,68.799,16.5293,5.13,92,99,1.79,NO,1696309999
523,guerrero negro,27.9769,-114.0611,21.26,57,0,8.31,MX,1696253362
524,paramaribo,5.8667,-55.1667,31.95,69,20,1.79,SR,1696238887
525,pampa,35.5362,-100.9599,29.53,49,100,10.79,US,1696250354
526,novo aripuana,-5.1206,-60.3797,32.9,28,99,1.4,BR,1696239975
527,san luis de la loma,17.2706,-100.8939,29.48,80,76,2.57,MX,1696250030
528,baki,-7.6128,110.7839,22.95,84,94,3.88,ID,1696285241
529,assab,13.0092,42.7394,30.3,69,0,9.3,ER,1696301894
530,iaciara,-14.0958,-46.6317,30.62,36,22,3.15,BR,1696236535
531,mawlamyinegyunn,16.3833,95.2667,24.03,96,96,0.96,MM,1696289341
532,el granada,37.5027,-122.4694,28.23,70,0,8.23,US,1696255559
533,ansermanuevo,4.7972,-75.995,26.43,88,100,2.54,CO,1696243869
534,port augusta,-32.5,137.7667,18.38,53,80,1.67,AU,1696278285
535,ljungby,56.8332,13.9408,13.67,96,100,2.25,SE,1696309841
536,franca,-20.5386,-47.4008,23.21,73,49,0.78,BR,1696236608
537,eregli,37.5133,34.0467,16.47,66,94,0.46,TR,1696304424
538,lijiang,26.8688,100.2207,15.06,96,83,1.29,CN,1696288327
539,newport,51.5877,-2.9984,13.58,90,100,3.77,GB,1696227209
540,barabai,-2.5833,115.3833,24.37,78,76,0.65,ID,1696284218
541,vilyuchinsk,52.9306,158.4028,8.85,86,100,3.83,RU,1696274972
542,alvaraes,-3.2208,-64.8042,32.93,34,100,0.15,BR,1696241065
543,flying fish cove,-10.4217,105.6791,23.82,78,75,4.63,CX,1696286419
544,auki,-8.7676,160.7034,27.85,81,98,2.59,SB,1696273246
545,plattsburgh,44.6995,-73.4529,18.56,67,0,0.0,US,1696243947
546,shahpur chakar,26.155,68.6509,26.08,35,4,2.32,PK,1696295893
547,mirny,62.5353,113.9611,-4.87,92,90,1.79,RU,1696286087
548,itaituba,-4.2761,-55.9836,30.41,42,77,1.02,BR,1696238933
549,altamira,-3.2033,-52.2064,29.45,53,88,1.36,BR,1696238043
550,pipri,19.8,75.5333,22.92,84,85,3.02,IN,1696294133
551,ma'rib,15.4591,45.3253,22.92,19,0,2.34,YE,1696301313
552,nuevo progreso,23.1667,-97.95,31.93,63,74,5.33,MX,1696249415
553,puerto armuelles,8.2833,-82.8667,28.99,72,99,0.45,PA,1696245569
554,calvinia,-31.4707,19.776,19.9,27,0,1.9,ZA,1696306602
555,dongsheng,39.8161,109.9776,8.46,89,1,2.27,CN,1696286241
556,dalandzadgad,43.5708,104.425,7.75,54,17,1.68,MN,1696287664
557,salahonda,2.1019,-78.7217,26.51,81,85,7.02,CO,1696244484
558,labuan,5.2767,115.2417,26.2,94,20,0.0,MY,1696284374
559,cartagena del chaira,1.3349,-74.8429,27.56,72,79,0.86,CO,1696243542
560,anar darah,32.7587,61.654,20.97,19,0,0.64,AF,1696297696
561,forster,-32.1667,152.5167,26.32,57,0,3.57,AU,1696274756
562,senekal,-28.3197,27.6208,15.29,46,0,3.03,ZA,1696304796
